{
	"projects": [{
			"name": "Malmö FF",
			"teamMembers": [{
					"name": "Magnus",
					"commits": "5",
					"hours": "22"
				},
				{
					"name": "Calle",
					"commits": "10",
					"hours": "23"
				}
			]
		},
    {
			"name": "Skånes Dansteater",
			"teamMembers": [{
					"name": "Christoffer",
					"commits": "33",
					"hours": "30"
				},
				{
					"name": "Jennifer",
					"commits": "4",
					"hours": "12"
				},
        {
					"name": "Marri",
					"commits": "5",
					"hours": "33"
				},
        {
					"name": "Mattias",
					"commits": "4",
					"hours": "12"
				},
        {
					"name": "Nils",
					"commits": "12",
					"hours": "24"
				},
				{
					"name": "Jens_L",
					"commits": "9",
					"hours": "9"
				},
        {
					"name": "Jens_G",
					"commits": "10",
					"hours": "3"
				},
        {
					"name": "Olof",
					"commits": "1",
					"hours": "15"
				},
        {
					"name": "Erik",
					"commits": "20",
					"hours": "22"
				},
        {
					"name": "Anton",
					"commits": "2",
					"hours": "12"
				}
			]
		},
		{
			"name": "Malmö Stadsteater",
			"teamMembers": [{
					"name": "Oddaset Hillbert",
					"commits": "33",
					"hours": "38"
				},
				{
					"name": "Oddset Hillvig",
					"commits": "4",
					"hours": "12"
				},
        {
					"name": "Oddling Hillner",
					"commits": "5",
					"hours": "36"
				}
			]
		},
    {
			"name": "Medicon Village",
			"teamMembers": [{
					"name": "Oddaset Hillbert",
					"commits": "7",
					"hours": "25"
				},
				{
					"name": "Oddset Hillvig",
					"commits": "10",
					"hours": "24"
				},
        {
					"name": "Oddset Hillvig",
					"commits": "1",
					"hours": "9"
				},
        {
					"name": "Oddling Hillner",
					"commits": "2",
					"hours": "5"
				}
			]
		}
	]
}
